region,name,place,status,last_sighted,method,notes,latitude,longitude
Bedfordshire,Black Lion,Leighton Buzzard,Perm,2025 Q3,Handpump,,51.9158495,-0.6638885999999999
Bedfordshire,Bricklayers Arms,Luton,Perm,2025 Q2,Handpump,,51.88344379999999,-0.4132303
Cambridgeshire,Kingston Arms,Cambridge,Perm,2025 Q4,Handpump,,52.2003527,0.1397641
Cambridgeshire,White Horse,Exning,Perm,2025 Q1,Handpump,,52.2662167,0.3741556
Cheshire,Gold Club (PMC),Alsager,Perm,2025 Q3,Handpump,,53.0893649,-2.2819822
Cheshire,Lodge Inn,Alsager,Perm,2025 Q3,Handpump,,53.0954647,-2.3118127
Cheshire,Cotton Tree,Bollington,Perm,2025 Q2,Handpump,,53.2984016,-2.092191
Cheshire,Turners,Bollington,Perm,2025 Q1,Handpump,,53.2983718,-2.0926465
Cheshire,Golden Eagle,Chester,Perm,2025 Q4,Handpump,,53.187029,-2.8917701
Cheshire,Queens Head Hotel,Congleton,Perm,2025 Q3,Handpump,,53.157457,-2.193574
Cheshire,Throstles Nest,Congleton,Perm,2025 Q4,Handpump,,53.16890859999999,-2.2015911
Cheshire,Olde Kings Head,Gurnett,Perm,2025 Q3,Handpump,,53.24328509999999,-2.1141739
Cheshire,GJ Muckers,Macclesfield,Perm,2025 Q4,Handpump,,53.2577384,-2.1224019
Cheshire,Jolly Sailor,Macclesfield,Perm,2025 Q4,Handpump,,53.2570174,-2.1226779
Cheshire,Coach and Horses,Timbersbrook,Perm,2025 Q4,Handpump,,53.1529919,-2.165417
Cornwall,Hole in the Wall,Bodmin,Perm,2025 Q4,Handpump,,50.4717636,-4.7191858
Cornwall,Seven Stars,Falmouth,Perm,2025 Q4,Gravity,,50.1552048,-5.072922699999999
Cornwall,Globe Inn,Looe,Perm,2025 Q3,Handpump,,50.35961200000001,-4.4556613
Cornwall,St John Inn,St John,Perm,2025 Q3,Handpump,,50.3606178,-4.2387614
Cornwall,Yacht Inn,Penzance,Perm,2025 Q2,Handpump,,50.1157165,-5.5327752
Cornwall,Old Ale House,Truro,Perm,2025 Q3,Handpump,Confirmed perm Sep 25,50.2630519,-5.0488434
Cornwall,New Inn,Tywardreath,Perm,2025 Q3,Gravity,,50.3576947,-4.6919866
Derbyshire,Bear Inn,Alderwasley,Perm,2025 Q3,,,53.0711059,-1.5326371
Derbyshire,Amber Hotel,Amber Row,Perm,2025 Q3,Handpump,,53.1086408,-1.4196609
Derbyshire,Coach and Horses,Ashbourne,Perm,2025 Q1,Handpump,,53.0163889,-1.7325
Derbyshire,Pavilion,Ashbourne,Perm,2025 Q1,Handpump,,53.0191116,-1.7267075
Derbyshire,Smiths Tavern,Ashbourne,Perm,2025 Q4,Handpump,,53.0176192,-1.7318426
Derbyshire,Wheel Inn,Ashbourne,Perm,2025 Q4,Handpump,,53.0157271,-1.7321304
Bedfordshire,Black Lion,Leighton Buzzard,Perm,2025 Q3,Handpump,,51.9158495,-0.6638885999999999
Bedfordshire,Bricklayers Arms,Luton,Perm,2025 Q2,Handpump,,51.88344379999999,-0.4132303
Cambridgeshire,Kingston Arms,Cambridge,Perm,2025 Q4,Handpump,,52.2003527,0.1397641
Cambridgeshire,White Horse,Exning,Perm,2025 Q1,Handpump,,52.2662167,0.3741556
Cheshire,Gold Club (PMC),Alsager,Perm,2025 Q3,Handpump,,53.0893649,-2.2819822
Cheshire,Lodge Inn,Alsager,Perm,2025 Q3,Handpump,,53.0954647,-2.3118127
Cheshire,Cotton Tree,Bollington,Perm,2025 Q2,Handpump,,53.2984016,-2.092191
Cheshire,Turners,Bollington,Perm,2025 Q1,Handpump,,53.2983718,-2.0926465
Cheshire,Golden Eagle,Chester,Perm,2025 Q4,Handpump,,53.187029,-2.8917701
Cheshire,Queens Head Hotel,Congleton,Perm,2025 Q3,Handpump,,53.157457,-2.193574
Cheshire,Throstles Nest,Congleton,Perm,2025 Q4,Handpump,,53.16890859999999,-2.2015911
Cheshire,Olde Kings Head,Gurnett,Perm,2025 Q3,Handpump,,53.24328509999999,-2.1141739
Cheshire,GJ Muckers,Macclesfield,Perm,2025 Q4,Handpump,,53.2577384,-2.1224019
Cheshire,Jolly Sailor,Macclesfield,Perm,2025 Q4,Handpump,,53.2570174,-2.1226779
Cheshire,Coach and Horses,Timbersbrook,Perm,2025 Q4,Handpump,,53.1529919,-2.165417
Cornwall,Hole in the Wall,Bodmin,Perm,2025 Q4,Handpump,,50.4717636,-4.7191858
Cornwall,Seven Stars,Falmouth,Perm,2025 Q4,Gravity,,50.1552048,-5.072922699999999
Cornwall,Globe Inn,Looe,Perm,2025 Q3,Handpump,,50.35961200000001,-4.4556613
Cornwall,St John Inn,St John,Perm,2025 Q3,Handpump,,50.3606178,-4.2387614
Cornwall,Yacht Inn,Penzance,Perm,2025 Q2,Handpump,,50.1157165,-5.5327752
Cornwall,Old Ale House,Truro,Perm,2025 Q3,Handpump,Confirmed perm Sep 25,50.2630519,-5.0488434
Cornwall,New Inn,Tywardreath,Perm,2025 Q3,Gravity,,50.3576947,-4.6919866
Derbyshire,Bear Inn,Alderwasley,Perm,2025 Q3,,,53.0711059,-1.5326371
Derbyshire,Amber Hotel,Amber Row,Perm,2025 Q3,Handpump,,53.1086408,-1.4196609
Derbyshire,Coach and Horses,Ashbourne,Perm,2025 Q1,Handpump,,53.0163889,-1.7325
Derbyshire,Pavilion,Ashbourne,Perm,2025 Q1,Handpump,,53.0191116,-1.7267075
Derbyshire,Smiths Tavern,Ashbourne,Perm,2025 Q4,Handpump,,53.0176192,-1.7318426
Derbyshire,Wheel Inn,Ashbourne,Perm,2025 Q4,Handpump,,53.0157271,-1.7321304
Derbyshire,Brookfield (Barrow Social Club),Barrow upon Trent,Perm,2025 Q4,Handpump,,52.8535542,-1.476719
Derbyshire,White Hart,Belper: Bargate,Perm,2025 Q4,Handpump,"Removed after WhatPub, Fb, Google and Utp review. Reinstated via PCl msg Dec 25",53.0125853,-1.4626751
Derbyshire,Arkwrights,Belper: Central,Perm,2025 Q3,Handpump,,53.0226362,-1.4832795
Derbyshire,Belper House,Belper: Central,Perm,2025 Q2,Handpump,,53.0240817,-1.4786016
Derbyshire,George and Dragon,Belper: Central,Perm,2025 Q4,Handpump,,53.0266683,-1.4855615
Derbyshire,Old Kings Head,Belper: Central,Perm,2025 Q2,Handpump,,53.0219834,-1.4805779
Derbyshire,Queens Head,Belper: Central,Perm,2025 Q1,Handpump,,53.0279073,-1.4761187
Derbyshire,Tavern,Belper: Central,Perm,2025 Q2,Handpump,,53.0180387,-1.4846464
Derbyshire,Thorn Tree Inn,Belper: Central,Perm,2025 Q2,Handpump,,53.0275866,-1.4762106
Derbyshire,Bulls Head,Belper Lane End,Perm,2025 Q1,Handpump,,53.0411716,-1.5039396
Derbyshire,Waterloo,Biggin,Perm,2025 Q3,Handpump,,53.132485,-1.773563
Derbyshire,Navigation,Breaston,Perm,2025 Q4,Handpump,,52.901734,-1.3170484
Derbyshire,Burton Golf Club (PMC),Bretby,Perm,2025 Q1,Handpump,,52.79874230000001,-1.584055
Derbyshire,Mount Pleasant Inn,Castle Gresley,Perm,2025 Q2,Handpump,,52.7498761,-1.5737433
Derbyshire,R and Rs Sports Bar,Chellaston,Perm,2025 Q4,Handpump,,52.8690526,-1.4379315
Derbyshire,Chesterfield Arms,Chesterfield: Newbold,Perm,2025 Q2,Handpump,,53.2411804,-1.4318926
Derbyshire,Broughton Heath Golf Club (PMC),Church Broughton,Perm,2025 Q2,Handpump,,52.8865476,-1.6813588
Derbyshire,Drum and Monkey,Castle Gresley,Perm,2025 Q2,Handpump,,52.7580566,-1.5766504
Derbyshire,Miners Arms,Church Gresley,Perm,2025 Q4,Handpump,,52.7603492,-1.5678824
Derbyshire,Black Horse,Coton in the Elms,Perm,2025 Q2,Handpump,,52.7341035,-1.6363212
Derbyshire,Boat,Cromford,Perm,2025 Q4,Handpump,,53.1092548,-1.5618505
Derbyshire,Cromford Community Centre,Cromford,Perm,2025 Q3,Handpump,,53.1086125,-1.5593823
Derbyshire,Carpenters Arms,Dale Abbey,Perm,2025 Q2,Handpump,,52.9457543,-1.3516911
Derbyshire,Allestree Club,Derby: Allestree,Perm,2025 Q3,Handpump,Not a PMC - just cheaper if you are a member,52.9542055,-1.4877047
Derbyshire,Markeaton,Derby: Allestree,Perm,2025 Q3,Handpump,,52.94483109999999,-1.5027753
Derbyshire,Red Cow,Derby: Allestree,Perm,2025 Q1,Handpump,,52.9533575,-1.48401
Derbyshire,Woodlands Hotel,Derby: Allestree,Perm,2025 Q2,Handpump,,52.9536791,-1.4965039
Derbyshire,Five Lamps,Derby: Central,Perm,2025 Q4,Handpump,,52.9292131,-1.4827766
Derbyshire,Flowerpot,Derby: Central,Perm,2025 Q3,Handpump,,52.9262741,-1.4796205
Derbyshire,Horse and Groom,Derby: Central,Perm,2025 Q4,Handpump,,52.9296154,-1.4868543
Derbyshire,Neptune,Derby: Central,Perm,2025 Q4,Handpump,,52.9190164,-1.4751432
Derbyshire,Old Bell Hotel,Derby: Central,Perm,2025 Q4,Handpump,,52.9233443,-1.4778102
Derbyshire,Old Silk Mill,Derby: Central,Perm,2025 Q4,Handpump,,52.92549589999999,-1.4771478
Derbyshire,Smithfield,Derby: Central,Perm,2025 Q4,Handpump,,52.9232869,-1.4678036
Derbyshire,White Horse,Derby: Central,Perm,2025 Q3,Handpump,,52.9218816,-1.4738548
Derbyshire,Ye Olde Dolphin Inne,Derby: Central,Perm,2025 Q4,Handpump,,52.9252698,-1.4779331
Derbyshire,Hoppy Place,Derby: Chaddesden,Perm,2025 Q4,Handpump,,52.92384080000001,-1.4385173
Derbyshire,Jubilee Club (PMC),Derby: Chaddesden,Perm,2025 Q3,Handpump,,52.9304462,-1.4344874
Derbyshire,Coach and Horses,Derby: Chester Green,Perm,2025 Q3,Handpump,,52.9963838,-1.4332942
Derbyshire,New Zealand Arms,Derby: New Zealand,Perm,2025 Q4,Handpump,,52.9257509,-1.4987057
Derbyshire,Norman Arms,Derby: Normanton,Perm,2025 Q3,Handpump,,52.8985519,-1.4824811
Derbyshire,Liberal Club (PMC),Derby: Spondon,Perm,2025 Q4,Handpump,,52.9211191,-1.4027604
Derbyshire,Village/Conservative Club (PMC),Derby: Spondon,Perm,2025 Q4,Handpump,,52.9212875,-1.4041107
Derbyshire,White Swan,Derby: Spondon,Perm,2025 Q3,Handpump,,52.9209486,-1.4032615
Derbyshire,Woodlark,Derby: West End,Perm,2025 Q4,Handpump,,52.9265391,-1.4859066
Derbyshire,Duffield Club (PMC),Duffield,Perm,2025 Q1,Handpump,,52.9873467,-1.4878988
Derbyshire,Pattenmakers Arms,Duffield,Perm,2025 Q2,Handpump,,52.9884985,-1.4904316
Derbyshire,Spread Eagle,Etwall,Perm,2025 Q4,Handpump,,52.8838725,-1.6015041
Derbyshire,Bluebell,Farnah,Perm,2025 Q1,Handpump,,53.0173906,-1.5015611
Derbyshire,Hollybush,Grangemill,Perm,2025 Q2,Handpump,,53.115484,-1.6374417
Derbyshire,Queen Anne Inn,Great Hucklow,Perm,2025 Q3,Handpump,,53.29796810000001,-1.7362575
Derbyshire,Admiral Rodney,Hartshorne,Perm,2025 Q2,Handpump,,52.7864265,-1.5199124
Derbyshire,Mill Wheel,Hartshorne,Perm,2025 Q2,Handpump,,52.7885933,-1.5186888
Derbyshire,Doveside Social Club (PMC),Hatton,Perm,2025 Q1,Handpump,,52.8651795,-1.6823885
Derbyshire,Tavern,Hatton,Perm,2025 Q3,Handpump,,52.8724253,-1.6789112
Derbyshire,Eagle Tavern,Heage,Perm,2025 Q2,Handpump,,53.0507733,-1.4466983
Derbyshire,Jolly Sailor,Hemington,Perm,2025 Q3,Handpump,,52.8472094,-1.3252795
Derbyshire,Hourglass,Hilton,Perm,2025 Q3,Handpump,,52.8723448,-1.6392964
Derbyshire,Dead Poets Inn,Holbrook,Perm,2025 Q4,,,53.0052195,-1.4589875
Derbyshire,Red Lion,Hollington,Perm,2025 Q4,Handpump,,52.95248669999999,-1.6618057
Derbyshire,Coach and Horses,Horsley,Perm,2025 Q4,Handpump,,52.9963838,-1.4332942
Derbyshire,Sitwell Arms,Horsley Woodhouse,Perm,2025 Q3,Handpump,,52.9927623,-1.4089178
Derbyshire,John Thompson Inn,Ingleby,Perm,2025 Q2,Handpump,,52.83842970000001,-1.4773994
Derbyshire,Hunters Arms,Kilburn,Perm,2025 Q4,Handpump,,53.0065123,-1.4385211
Derbyshire,Hardinge Arms,Kings Newton,Perm,2025 Q1,Handpump,,52.83166319999999,-1.426136
Derbyshire,Red Lion,Kniveton,Perm,2025 Q2,Handpump,,53.048619,-1.6924839
Derbyshire,Red Lion,Linton,Perm,2025 Q2,Handpump,,52.7472642,-1.5945597
Derbyshire,Fairholme Club (PMC),Littleover,Perm,2025 Q3,Handpump,,52.9049533,-1.5068258
Derbyshire,Half Moon,Littleover,Perm,2025 Q3,Handpump,,52.90700529999999,-1.5032132
Derbyshire,Bell and Harp,Little Eaton,Perm,2025 Q4,Handpump,,52.98062239999999,-1.4535573
Derbyshire,Curzon Club (PMC),Long Eaton,Perm,2025 Q3,Handpump,,52.9067054,-1.28003
Derbyshire,George Inn,Lower Hartshay,Perm,2025 Q3,Handpump,,53.0594855,-1.4344351
Derbyshire,Colvile Arms,Lullington,Perm,2025 Q3,Handpump,,52.7147033,-1.6318293
Derbyshire,Red Lion,Matlock,Perm,2025 Q4,Handpump,,53.1351326,-1.5489355
Derbyshire,Sycamore Inn,Matlock,Perm,2025 Q1,Handpump,,53.1441437,-1.5585868
Derbyshire,Thorn Tree,Matlock,Perm,2025 Q3,Handpump,,53.1442618,-1.5533459
Derbyshire,Harpurs,Melbourne,Perm,2025 Q2,Handpump,,52.82346099999999,-1.42824
Derbyshire,Melbourne British Legion,Melbourne,Perm,2025 Q1,Handpump,,52.8262286,-1.4312335
Derbyshire,Melbourne Inn,Melbourne,Perm,2025 Q3,Handpump,,52.8226917,-1.4293766
Derbyshire,White Swan,Melbourne,Perm,2025 Q2,Handpump,,52.82261099999999,-1.4250671
Derbyshire,Robin,Mickleover,Perm,2025 Q4,Handpump,,52.9133217,-1.5372596
Derbyshire,Vine,Mickleover,Perm,2025 Q3,Handpump,,52.9048472,-1.5431855
Derbyshire,Rising Sun,Middleton by Wirksworth,Perm,2025 Q2,Handpump,,53.0944782,-1.5844002
Derbyshire,King William,Milford,Perm,2025 Q3,,,53.0021873,-1.4778546
Derbyshire,Milford Sunshine Social Club (PMC),Milford,Perm,2025 Q4,,,53.0028033,-1.4803677
Derbyshire,Swan Inn,Milton,Perm,2025 Q3,Handpump,,52.8333409,-1.5250491
Derbyshire,Netherseal Sports Club (PMC),Netherseal,Perm,2025 Q4,Handpump,Confirmed by Fb,52.7175994,-1.5778436
Derbyshire,Anchor,Newhall,Perm,2025 Q1,Handpump,,52.7811982,-1.564252
Derbyshire,Crown,Newhall,Perm,2025 Q4,Handpump,,52.7803129,-1.5797004
Derbyshire,Newhall Social Club,Newhall,Perm,2025 Q1,Handpump,"not a PMC: ""open to anyone""",52.7839167,-1.5707138
Derbyshire,Thorn Tree,Newhall,Perm,2025 Q4,Handpump,,52.787563,-1.5749482
Derbyshire,Brickmakers Arms,Newton Solney,Perm,2025 Q4,Handpump,,52.8273227,-1.5840381
Derbyshire,Unicorn,Newton Solney,Perm,2025 Q2,Handpump,,52.8281317,-1.5823634
Derbyshire,Britannia Inn,New Tupton,Perm,2025 Q2,Handpump,,53.1897525,-1.4063782
Derbyshire,Royal Oak,Ockbrook,Perm,2025 Q4,Handpump,,52.9234856,-1.3729682
Derbyshire,Shoulder of Mutton,Osmaston,Perm,2025 Q4,Handpump,,52.9907645,-1.7033822
Derbyshire,Dog,Pentrich,Perm,2025 Q3,Handpump,Bass is used for the fish & chip batter!,53.0682656,-1.419242
Derbyshire,Kedleston Park Golf Club (PMC),Quarndon,Perm,2025 Q1,Handpump,,52.964068,-1.5194177
Derbyshire,Red Lion,Repton,Perm,2025 Q4,Handpump,,52.83924099999999,-1.550793
Derbyshire,Talbot Taphouse,Ripley: Central,Perm,2025 Q4,Handpump,,53.05335299999999,-1.4054243
Derbyshire,Amber Hotel,Ripley: Oakerthorpe,Perm,2025 Q3,Handpump,,53.1086408,-1.4196609
Derbyshire,Bulls Head,Rosliston,Perm,2025 Q4,Handpump,,52.7487594,-1.6423254
Derbyshire,East Lodge Country House Hotel,Rowsley,Perm,2025 Q1,Handpump,,53.190203,-1.6163092
Derbyshire,White Lion,Sawley,Perm,2025 Q4,Handpump,,52.8787411,-1.2991897
Derbyshire,Horse and Groom,Scarcliffe,Perm,2025 Q3,Handpump,,53.2126039,-1.267747
Derbyshire,Boathouse,Shardlow,Perm,2025 Q4,Handpump,,52.8682222,-1.3382319
Derbyshire,Navigation,Shardlow,Perm,2025 Q4,,,52.8680529,-1.3426407
Derbyshire,Old Crown,Shardlow,Perm,2025 Q2,Handpump,,52.8640133,-1.339212
Derbyshire,Shakespeare Inn,Shardlow,Perm,2025 Q4,Handpump,,52.8689364,-1.3522313
Derbyshire,Old Yew Tree,South Wingfield,Perm,2025 Q1,Handpump,,53.092917,-1.441072
Derbyshire,Chequers Inn,Stanton by Dale,Perm,2025 Q1,Handpump,temp off due to supply issues June 2025,52.9368714,-1.3110166
Derbyshire,Flying Childers,Stanton in Peak,Perm,2025 Q2,Handpump,,53.17537979999999,-1.6416574
Derbyshire,Belmont Services Club (PMC),Swadlincote: Central,Perm,2025 Q2,Handpump,,52.7740766,-1.5562405
Derbyshire,Constitutional Club (PMC),Swadlincote: Central,Perm,2025 Q3,Handpump,,52.7744138,-1.55758
Derbyshire,Wheel,Swadlincote: Midway,Perm,2025 Q2,Handpump,,52.7855587,-1.5555406
Derbyshire,Steampacket Inn,Swanwick,Perm,2025 Q3,Handpump,,53.07534920000001,-1.3982266
Derbyshire,Harrington Arms,Thulston,Perm,2025 Q4,Handpump,,52.8834617,-1.3938732
Derbyshire,Chequers,Ticknall,Perm,2025 Q4,Handpump,,52.809974,-1.481793
Derbyshire,Thorn Tree,Waingroves,Perm,2025 Q2,Handpump,,53.0388598,-1.3856467
Derbyshire,Coopers Arms,Weston on Trent,Perm,2025 Q1,Handpump,,52.8510667,-1.4026897
Derbyshire,Dragon,Willington,Perm,2025 Q4,Handpump,,52.854204,-1.56386
Derbyshire,Green Man,Willington,Perm,2025 Q3,Handpump,,52.85363570000001,-1.565025
Derbyshire,Lime Kiln,Wirksworth,Perm,2025 Q2,Handpump,,53.0896833,-1.5706671
Derbyshire,Quarryman,Wirksworth,Perm,2025 Q2,Handpump,,53.0822227,-1.5744081
Derbyshire,Wheatsheaf,Wirksworth,Perm,2025 Q2,Handpump,,53.0798837,-1.5734182
Derbyshire,Bulls Head,Wilson,Perm,2025 Q4,Handpump,,52.8170921,-1.4036457
Derbyshire,Greyhound,Woodville,Perm,2025 Q4,Handpump,,52.7674375,-1.5125255
Derbyshire,Joiners Arms,Woodville,Perm,2025 Q1,Handpump,,52.7663383,-1.5296295
Derbyshire,Bulls Head,Youlgrave,Perm,2025 Q2,Handpump,"in the midst of swapping tenants, April 2025",53.175349,-1.6860501
Devon,Corner House,Barnstaple,Perm,2025 Q4,Handpump,,51.0812493,-4.0586072
Devon,Pony and Trap,Cullompton,Perm,2025 Q3,Handpump,,50.8544444,-3.3936111
Devon,Beach,Exmouth,Perm,2025 Q4,Handpump,,50.6169495,-3.4229315
Devon,Royal Inn,Horsebridge,Perm,2025 Q2,Handpump,,50.5522852,-4.2589343
Devon,Ship and Pilot,Ilfracombe,Perm,2025 Q3,Handpump,,51.2099309,-4.1162846
Devon,Mountain Inn,Lutton,Perm,2025 Q2,Handpump,,50.4177791,-3.9768452
Devon,Railway Brewhouse,Newton Abbot,Perm,2025 Q4,Handpump,,50.5303543,-3.5997059
Devon,Dolphin Hotel,Plymouth: Barbican,Perm,2025 Q4,Gravity,,50.36721590000001,-4.1348628
Devon,Lounge,Plymouth: Devonport,Perm,2025 Q3,Handpump,,50.37654509999999,-4.169673
Devon,St Levan Inn,Plymouth: Dockyard,Perm,2025 Q3,Handpump,,50.3836161,-4.1730463
Devon,Artillery Arms,Plymouth: Stonehouse,Perm,2025 Q4,Handpump,,50.3648846,-4.1606231
Devon,London Inn,Plympton,Perm,2025 Q2,Handpump,,50.3833008,-4.0474257
Devon,Half Moon,Tiverton,Perm,2025 Q2,Handpump,,50.9030748,-3.4875385
Dorset,Tiger,Bridport,Perm,2025 Q4,Handpump,,50.73375309999999,-2.7545534
Dorset,Bakers Arms,Dorchester,Perm,2025 Q3,Handpump,,50.7089507,-2.4316796
Durham,Grey Horse,Consett,Perm,2025 Q3,Handpump,,54.8544065,-1.8244825
Durham,Half Moon,Durham,Perm,2025 Q4,Handpump,,54.7755084,-1.5722295
Durham,Masham,Hartburn,Perm,2025 Q3,Handpump,,54.55426,-1.3400526
Durham,Hardwick Arms Hotel,Sedgefield,Perm,2025 Q3,Handpump,incorporates Herd Grill,54.65399540000001,-1.4518005
Durham,Sun,Stockton-on-Tees,Perm,2025 Q4,,Available Banked,54.5655835,-1.3120535
Durham,Wellington Inn,Wolviston,Perm,2025 Q4,,Available Banked,54.6247751,-1.2992071
Gloucs & Bristol,Sandringham,Bristol: Brislington,Perm,2025 Q4,Electric,,51.4409143,-2.555463800000001
Gloucs & Bristol,Bank Tavern,Bristol: Central,Perm,2025 Q4,Handpump,Quality warning Sep 2025,51.4561747,-2.5939252
Gloucs & Bristol,Sportsmans (PMC),Bristol: Central,Perm,2025 Q3,Handpump,,51.455673,-2.5973574
Gloucs & Bristol,Nova Scotia,Bristol: Cumberland Basin,Perm,2025 Q3,Handpump,,51.4472153,-2.6186787
Gloucs & Bristol,Myrtle Tree,Bristol: Hotwells,Perm,2025 Q4,Gravity,,51.4509078,-2.607118
Gloucs & Bristol,Rose of Denmark,Bristol: Hotwells,Perm,2025 Q2,Handpump,,51.449677,-2.621311
Gloucs & Bristol,Horse and Jockey,Bristol: St George,Perm,2025 Q3,Electric,,51.4558088,-2.5286527
Gloucs & Bristol,Pied Horse,Bristol: St George,Perm,2025 Q4,Handpump,,51.4597772,-2.5372626
Gloucs & Bristol,Crown Tavern,Bristol: St Judes,Perm,2025 Q4,Handpump,"Quality warning 2025 Q2 (IF) ""Bass club, buy 5 Bass, 6th free""",51.4585557,-2.5787088
Gloucs & Bristol,Avon Packet,Bristol: Southville,Perm,2025 Q4,Electric,,51.4458047,-2.6111318
Gloucs & Bristol,King William IV,Bristol: Staple Hill,Perm,2025 Q1,Handpump,,51.4808493,-2.5030261
Gloucs & Bristol,Imperial Inn,Gloucester,Perm,2025 Q3,Handpump,,51.8667173,-2.2438497
Gloucs & Bristol,King William IV,Hallen,Perm,2025 Q2,Handpump,,51.517425,-2.649122
Gloucs & Bristol,Anchor Inn,Oldbury-on-Severn,Perm,2025 Q1,Handpump,,51.6289125,-2.566374
Gloucs & Bristol,Dog Inn,Old Sodbury,Perm,2025 Q3,Handpump,,51.5320604,-2.3568698
Gloucs & Bristol,Post Office Tavern,Westbury on Trym,Perm,2025 Q1,Gravity,,51.4909219,-2.6166923
Hampshire,Pembroke,Portsmouth,Perm,2025 Q4,Handpump,,50.7897849,-1.1030319
Herefordshire,Lichfield Vaults,Hereford,Perm,2025 Q3,Handpump,,52.0558065,-2.7161128
Hertfordshire,Verulam Arms,St Albans,Perm,2025 Q3,Handpump,,51.7528521,-0.3440705
Lancashire,Saddle Inn,Blackpool,Perm,2025 Q4,Handpump,,53.8058977,-3.0283802
Lancashire,Stocks Tavern,Parbold,Perm,2025 Q4,Handpump,,53.5873298,-2.7687228
Lancashire,Bull,Poulton-le-Fylde,Perm,2025 Q3,Handpump,Quality warning Bass FB 2025 Q1,53.8462653,-2.992718
Leicestershire,Mushroom Hall,Albert Village,Perm,2025 Q2,Handpump,,52.76009759999999,-1.5504387
Leicestershire,Crown,Anstey,Perm,2025 Q3,Handpump,,52.6720835,-1.1937829
Leicestershire,Carington Arms,Ashby Folville,Perm,2025 Q1,Handpump,WhatPub updated March 25 says Bass is perm,52.7021484,-0.955761
Leicestershire,Blue Bell,Ashby-de-la-Zouch,Perm,2025 Q4,Handpump,,52.7505335,-1.4745478
Leicestershire,Railway Tavern,Ashby-de-la-Zouch,Perm,2025 Q3,Handpump,,52.7419567,-1.4751617
Leicestershire,Cross Keys,Barwell,Perm,2025 Q3,Handpump,,52.5668724,-1.3444604
Leicestershire,Red Lion,Barwell,Perm,2025 Q3,Handpump,,52.563874,-1.3496203
Leicestershire,Queens Head,Belton,Perm,2024 Q4,Handpump,On notice - a year since a spot!,52.78286869999999,-1.33927
Leicestershire,Black Lion,Blackfordby,Perm,2025 Q1,Handpump,,52.75939349999999,-1.5114885
Leicestershire,Plough,Bruntingthorpe,Perm,2025 Q4,Handpump,,52.502561,-1.1129483
Leicestershire,Constitutional Club (PMC),Burbage,Perm,2025 Q3,Handpump,,52.5299606,-1.3485631
Leicestershire,Red Lion,Burbage,Perm,2025 Q1,Handpump,,52.5270081,-1.3488919
Leicestershire,Sycamores,Burbage,Perm,2025 Q3,Handpump,,52.5264088,-1.352076
Leicestershire,Gate Hangs Well,Carlton,Perm,2025 Q4,Handpump,,52.6436568,-1.4087652
Leicestershire,Jolly Potters,Castle Donington,Perm,2025 Q4,Handpump,,52.8431299,-1.3370659
Leicestershire,George Inn,Coleorton,Perm,2025 Q3,Handpump,,52.7517533,-1.3987225
Leicestershire,Horse and Jockey,Congerstone,Perm,2025 Q4,Handpump,,52.6427017,-1.4574426
Leicestershire,Plough,Diseworth,Perm,2025 Q2,Handpump,,52.8167152,-1.3298999
Leicestershire,Halfway House,Donisthorpe,Perm,2025 Q4,Handpump,,52.72199209999999,-1.5367725
Leicestershire,Pavilion Bar and Restaurant,Donisthorpe,Perm,2025 Q2,Handpump,,52.7249794,-1.5298351
Leicestershire,Red Lion,Earl Shilton,Perm,2025 Q3,Handpump,,52.57592589999999,-1.3135619
Leicestershire,Shilton Vaults,Earl Shilton,Perm,2025 Q3,Handpump,,52.5756375,-1.3153953
Leicestershire,Glenhills Sports And Social Club,Glen Parva,Perm,2025 Q4,Handpump,,52.5853356,-1.1650921
Leicestershire,Black Horse,Grimston,Perm,2025 Q2,Handpump,,52.790344,-0.9868319
Leicestershire,Dew Drop Inn,Hathern,Perm,2025 Q4,Handpump,,52.7931653,-1.2590227
Leicestershire,Crown,Heather,Perm,2025 Q3,Handpump,,52.69339,-1.4237461
Leicestershire,Jolly Sailor,Hemington,Perm,2025 Q3,Handpump,,52.8472094,-1.3252795
Leicestershire,Citizens Club (PMC),Hinckley,Perm,2025 Q2,Handpump,,52.5396383,-1.367067
Leicestershire,Greyhound,Hinckley,Perm,2025 Q4,Handpump,,52.54287009999999,-1.3688175
Leicestershire,Last Roadhouse,Hinckley,Perm,2025 Q1,Handpump,formerly Prince of Wales,52.5395055,-1.3775655
Leicestershire,Pestle and Mortar,Hinckley,Perm,2025 Q4,Handpump,,52.54202129999999,-1.3683895
Leicestershire,Queens Head,Hinckley,Perm,2025 Q3,Handpump,,52.5456508,-1.372535
Leicestershire,Gate Inn,Hugglescote,Perm,2025 Q4,Handpump,,52.7121307,-1.3738531
Leicestershire,Waggon and Horses,Ibstock,Perm,2025 Q3,Handpump,,52.6898052,-1.3949422
Leicestershire,Cap and Stocking,Kegworth,Perm,2025 Q3,,,52.8376233,-1.2789275
Leicestershire,Coach and Horses,Kibworth Harcourt,Perm,2025 Q3,Handpump,,52.54233000000001,-0.992896
Leicestershire,Cherry Tree,Leicester: Central,Perm,2025 Q4,Handpump,,52.637502,-1.1358862
Leicestershire,Old Inn,Littlethorpe,Perm,2025 Q3,Handpump,,52.567799,-1.202383
Leicestershire,Generous Briton,Loughborough,Perm,2025 Q3,Handpump,,52.7724602,-1.2148619
Leicestershire,Peacock Inn,Loughborough,Perm,2025 Q4,Handpump,,52.768812,-1.2003954
Leicestershire,Ring o Bells,Loughborough,Perm,2025 Q2,Handpump,,52.7791326,-1.2203151
Leicestershire,Unicorn,Lutterworth,Perm,2025 Q4,Handpump,,52.45550739999999,-1.201441
Leicestershire,Admiral Nelson,Market Harborough,Perm,2025 Q2,Handpump,,52.4778365,-0.9275503
Leicestershire,White Hart,Measham,Perm,2025 Q3,Handpump,,52.70600229999999,-1.5059478
Leicestershire,Boat Inn,Melton Mowbray,Perm,2025 Q4,Handpump,,52.7621854,-0.8842616
Leicestershire,Railway Inn,Moira,Perm,2025 Q3,Handpump,,52.7377052,-1.5329555
Leicestershire,Rawdon Arms,Moira,Perm,2025 Q3,Handpump,,52.7366322,-1.5348686
Leicestershire,Cross Keys,Newbold Coleorton,Perm,2025 Q4,Handpump,,52.7683535,-1.4061353
Leicestershire,Belper Arms,Newton Burgoland,Perm,2024 Q4,Handpump,,52.6794038,-1.4561573
Leicestershire,New Storey,Osgathorpe,Perm,2025 Q3,Handpump,,52.7701435,-1.3692343
Leicestershire,New Inn,Peggs Green,Perm,2025 Q4,Jug,,52.7551938,-1.3908363
Leicestershire,Anchor,Plungar,Perm,2025 Q4,Handpump,,52.8980659,-0.8598937999999999
Leicestershire,Apple Tree,Quorn,Perm,2025 Q2,Handpump,,52.7451861,-1.1663093
Leicestershire,Manor House,Quorn,Perm,2025 Q2,Handpump,,52.7414397,-1.1864615
Leicestershire,Gate Inn,Ratcliffe Culey,Perm,2025 Q2,Handpump,,52.5929192,-1.519381
Leicestershire,Windmill Inn,Redmile,Perm,2025 Q4,Handpump,"""perm except when occaisionally unavailable from supplier"" (June 25)",52.9106675,-0.8146471
Leicestershire,Woodmans Stroke,Rothley,Perm,2025 Q2,Handpump,,52.7079353,-1.1351914
Leicestershire,Blue Dog,Sewstern,Perm,2025 Q4,Handpump,,52.78620369999999,-0.6840474
Leicestershire,Rising Sun,Shackerstone,Perm,2025 Q4,Handpump,,52.657012,-1.4473095
Leicestershire,Chandlers,Shearsby,Perm,2025 Q3,Handpump,,52.511772,-1.08288
Leicestershire,Black Swan,Shepshed,Perm,2025 Q3,Handpump,,52.7733047,-1.286855
Leicestershire,Horse,Shepshed,Perm,2025 Q3,Handpump,,52.7601164,-1.3064554
Leicestershire,Tap House,Smisby,Perm,2025 Q3,Handpump,,52.7603497,-1.4962609
Leicestershire,Three Horseshoes,Stoke Golding,Perm,2025 Q4,Handpump,,52.5709058,-1.4143097
Leicestershire,Robin Hood,Swannington,Perm,2025 Q4,Handpump,,52.7396298,-1.3871811
Leicestershire,Anchor Inn,Walton on the Wolds,Perm,2025 Q2,Handpump,,52.772914,-1.1229135
Leicestershire,Black Horse,Whitwick,Perm,2025 Q4,Handpump,,52.7407973,-1.3581699
Leicestershire,Man Within Compass,Whitwick,Perm,2025 Q4,Handpump,,52.74601269999999,-1.3507005
Leicestershire,Three Horseshoes (Pollys),Whitwick,Perm,2025 Q3,Handpump,,52.7398858,-1.3531554
Leicestershire,Old Bulls Head,Woodhouse Eaves,Perm,2025 Q3,Handpump,,52.7285309,-1.2175978
Leicestershire,Three Crowns,Wymeswold,Perm,2025 Q4,Handpump,,52.8058304,-1.1075249
Lincolnshire,Five Horseshoes,Barholm,Perm,2025 Q2,Handpump,,52.6845596,-0.3908635
Lincolnshire,Five Bells,Bassingham,Perm,2025 Q3,Handpump,,53.130419,-0.6384082
Lincolnshire,Conservative Club (PMC),Boston,Perm,2025 Q3,Handpump,,52.9781439,-0.0205177
Lincolnshire,No 1 Pub,Cleethorpes,Perm,2025 Q4,Handpump,,53.56256880000001,-0.0301956
Lincolnshire,Tempest Arms,Coleby,Perm,2025 Q2,Handpump,"on permanently ""at the moment"" (June 25)",53.1318677,-0.5431423
Lincolnshire,Beehive,Grantham,Perm,2025 Q4,Handpump,,52.9122678,-0.6404504
Lincolnshire,Olde Whyte Swanne,Louth,Perm,2025 Q3,Handpump,,53.3671172,-0.0040922
Lincolnshire,Wheatsheaf,Louth,Perm,2025 Q3,Handpump,,53.3663678,-0.0092242
Lincolnshire,White Horse Inn,Louth,Perm,2025 Q1,Handpump,,53.3585805,0.0069305999999999
Lincolnshire,Red Lion,Spalding,Perm,2025 Q3,Handpump,,52.78737959999999,-0.1513078
Lincolnshire,Waggon and Horses,South Reston,Perm,2025 Q2,Handpump,,53.322771,0.1142326
Lincolnshire,Beach Bar,Sutton-on-Sea,Perm,2025 Q3,Handpump,,53.3149263,0.2828607
Lincolnshire,Sutton Social Club (PMC),Sutton-on-Sea,Perm,2025 Q3,Handpump,,53.3158803,0.2818327
Lincolnshire,George Inn,Winterton,Perm,2025 Q3,Handpump,,53.6551019,-0.5973819
Lincolnshire,Ivy,Wragby,Perm,2025 Q4,Handpump,,53.28683230000001,-0.3035507
Greater London,Hand and Shears,Barbican EC1A,Perm,2025 Q3,Handpump,,51.5193405,-0.0987911
Greater London,Lord Clyde,Borough SE1,Perm,2025 Q3,Handpump,,51.5028133,-0.0954883
Greater London,Express Tavern,Brentford TW8,Perm,2025 Q4,Handpump,,51.4891342,-0.2878059
Greater London,Winchester,Highgate N6,Perm,2025 Q3,Handpump,,51.5736127,-0.1409836
Greater London,Flowerpot,Walthamstow E17,Perm,2025 Q2,Handpump,,51.5875652,-0.0038366
Greater Manchester,White Hart,Cheadle,Perm,2025 Q4,Handpump,,53.39394129999999,-2.2177299
Greater Manchester,Fox and Pine,Oldham,Perm,2025 Q3,Handpump,,53.5409985,-2.1106151
Greater Manchester,Crompton & Royton Golf Club (PMC),Royton,Perm,2025 Q2,Handpump,,53.5683784,-2.1140689
Greater Manchester,Crown,Stockport,Perm,2025 Q4,Handpump,New owners same as Petersgate Tap,53.4098889,-2.1665194
Greater Manchester,Wellington,Stockport,Perm,2025 Q4,Handpump,,53.4073362,-2.1598425
Greater Manchester,Swan and Railway,Wigan,Perm,2025 Q3,Handpump,,53.5438889,-2.6338948
Merseyside,Twelve-Sixty Bar and Lounge,Liscard,Perm,2025 Q1,Handpump,,53.419414,-3.0468027
Merseyside,Black Cat Bar,Liverpool: Central,Perm,2025 Q4,Handpump,,53.3785007,-2.9166344
Merseyside,Magazine Hotel,New Brighton,Perm,2025 Q3,Handpump,,53.43098029999999,-3.0338814
Norfolk,Garden House,Norwich,Perm,2025 Q4,Handpump,Perm 'so long as delivery arrives!',52.6282374,1.2752547
Northamptonshire,Old Red Lion,Litchborough,Perm,2025 Q3,,,52.18336069999999,-1.076275
Northamptonshire,Coach and Horses,Wellingborough,Perm,2025 Q1,Handpump,,52.3006399,-0.6973754999999999
Northumberland,Joiners Arms,Morpeth,Perm,2025 Q3,Handpump,,55.1659425,-1.6870785
Nottinghamshire,Martins Arms,Colston Bassett,Perm,2025 Q4,Handpump,,52.8913947,-0.9636218
Nottinghamshire,Nags Head,East Leake,Perm,2025 Q2,Handpump,,52.83143320000001,-1.1796747
Nottinghamshire,Railway Inn,Mansfield,Perm,2025 Q2,Handpump,,53.14225709999999,-1.1965886
Nottinghamshire,Brew Tavern,Nottingham: Central,Perm,2025 Q4,,Available Banked,52.9465553,-1.1465042
Nottinghamshire,Trent Navigation,Nottingham: Central,Perm,2025 Q2,Handpump,,52.9411277,-1.1382068
Nottinghamshire,VAT and Fiddle,Nottingham: Central,Perm,2025 Q1,Handpump,,52.945761,-1.148253
Nottinghamshire,Lion,Nottingham: New Basford,Perm,2025 Q4,Handpump,,52.971917,-1.172499
Nottinghamshire,White Lion,Rempstone,Perm,2025 Q3,Handpump,,52.813176,-1.1451472
Nottinghamshire,Victoria Tavern,Ruddington,Perm,2025 Q3,Handpump,,52.894608,-1.1498768
Nottinghamshire,Final Whistle,Southwell,Perm,2025 Q4,Handpump,,53.0818563,-0.9470529999999998
Nottinghamshire,Staunton Arms,Staunton in the Vale,Perm,2025 Q2,Handpump,,52.9845875,-0.8008523999999999
Nottinghamshire,Kings Head,Sutton Bonington,Perm,2025 Q3,Handpump,,52.8206932,-1.2515808
Nottinghamshire,Red Lion,Thurgarton,Perm,2025 Q2,Handpump,,53.03665780000001,-0.9649107999999998
Nottinghamshire,Star Inn,West Leake,Perm,2025 Q2,Handpump,,52.8300754,-1.2242601
Nottinghamshire,Plough,Wysall,Perm,2025 Q1,Handpump,,52.8405667,-1.1041955
Oxfordshire,Unicorn,Deddington,Perm,2025 Q1,Handpump,Pub landlady on Bass Fb Feb 25,51.9811747,-1.3217506
Rutland,Blue Bell,Belmesthorpe,Perm,2025 Q3,Handpump,,52.6800661,-0.4593359
Rutland,Crown,Great Casterton,Perm,2025 Q4,Handpump,,52.66810109999999,-0.5206630999999999
Shropshire,Kings Head,Shrewsbury: Central,Perm,2025 Q4,Handpump,,52.7094297,-2.7563979
Shropshire,Cross Foxes,Shrewsbury: Coleham,Perm,2025 Q4,Handpump,,52.70432779999999,-2.7464628
Shropshire,Woodman,Shrewsbury: Coton Hill,Perm,2025 Q4,Handpump,,52.7162253,-2.7532795
Shropshire,Wheatsheaf Hotel,Whitchurch,Perm,2025 Q4,Handpump,"""now and again""",52.9692638,-2.6817847
Somerset,Coeur de Lion,Bath,Perm,2025 Q3,Handpump,,51.3823729,-2.359668
Somerset,Ring o Bells,Bath,Perm,2025 Q4,Handpump,,51.3764481,-2.3540955
Somerset,Star Inn,Bath,Perm,2025 Q3,,,51.38765280000001,-2.3602901
Somerset,Trinity,Bath,Perm,2025 Q1,Handpump,,51.3807982,-2.363681
Somerset,Cross House,Doynton,Perm,2025 Q1,Handpump,,51.4644008,-2.4052653
Somerset,Old Down Inn,Emborough,Perm,2025 Q4,Handpump,,51.2594491,-2.5393205
Somerset,Angel,Long Ashton,Perm,2025 Q4,Handpump,,51.4363442,-2.6450749
Somerset,White Hart,Midsomer Norton,Perm,2025 Q3,Handpump,,51.2853101,-2.4836319
Somerset,Ship Inn,Portishead,Perm,2025 Q4,Handpump,Landlord Vic built the pub and has run it since 1973!,51.4731158,-2.8080756
Somerset,Vintage Inn,Wellington,Perm,2025 Q1,Handpump,,50.9777225,-3.2284033
Staffordshire,Crown,Abbots Bromley,Perm,2025 Q2,Handpump,,52.8186149,-1.8815238
Staffordshire,Crown Inn,Alrewas,Perm,2025 Q3,Handpump,,52.73354250000001,-1.7490714
Staffordshire,Stafford Arms,Bagnall,Perm,2025 Q3,Handpump,,53.0553412,-2.1088081
Staffordshire,Plume of Feathers,Barlaston,Perm,2025 Q4,Handpump,,52.94236189999999,-2.1698154
Staffordshire,Bowls Club (PMC),Barton-under-Needwood,Perm,2025 Q3,Handpump,,52.76561,-1.7219257
Staffordshire,Shoulder of Mutton,Barton-under-Needwood,Perm,2025 Q4,Handpump,,52.76414940000001,-1.7218218
Staffordshire,Two Pigs,Barton-under-Needwood,Perm,2025 Q4,Handpump,,52.7650981,-1.7252747
Staffordshire,Swan,Betley,Perm,2025 Q4,Handpump,,53.034123,-2.36869
Staffordshire,Royal Oak,Biddulph,Perm,2025 Q4,Handpump,,53.1172505,-2.1759037
Staffordshire,Foxhound,Biddulph Moor,Perm,2025 Q2,Handpump,,53.1241175,-2.1353674
Staffordshire,Swan,Bignall End,Perm,2025 Q3,Handpump,,53.0565321,-2.2932415
Staffordshire,Butchers Arms,Bramshall,Perm,2025 Q3,Handpump,,52.89663849999999,-1.9081603
Staffordshire,Bush,Brown Edge,Perm,2025 Q2,Handpump,,53.07652599999999,-2.1374024
Staffordshire,Nelson Inn,Brown Lees,Perm,2025 Q1,Handpump,,53.09904640000001,-2.1834295
Staffordshire,Blacksmiths,Burton U-T: Branston,Perm,2025 Q4,Handpump,,52.7875072,-1.6704757
Staffordshire,Burton Rugby Club,Burton U-T: Branston,Perm,2025 Q4,Handpump,Confirmed not a PMC (Oct 25),52.7893745,-1.6834532
Staffordshire,Trentside Cricket Club (PMC),Burton U-T: Branston,Perm,2025 Q4,Handpump,,52.7866592,-1.650832
Staffordshire,Gate,Burton U-T: Branston,Perm,2025 Q4,Handpump,,52.7857437,-1.6756467
Staffordshire,Alfred,Burton U-T: Central,Perm,2025 Q4,Handpump,"""£4.10 normally and £3.60 Monday til Friday 5pm til 7pm"" (Sep 25)",52.80948979999999,-1.6410907
Staffordshire,Branston Arms,Burton U-T: Central,Perm,2025 Q3,Handpump,,52.7915836,-1.6435096
Staffordshire,Burton Bridge Inn,Burton U-T: Central,Perm,2025 Q4,Handpump,"""planning on keeping it on as it’s been really popular""",52.8067703,-1.6255013
Staffordshire,Burton Constitutional Club (PMC),Burton U-T: Central,Perm,2025 Q3,Handpump,,52.8032419,-1.629102
Staffordshire,Coopers Tavern,Burton U-T: Central,Perm,2025 Q4,Gravity,,52.8046604,-1.6376331
Staffordshire,Devonshire Arms,Burton U-T: Central,Perm,2025 Q4,Handpump,,52.80539169999999,-1.6380094
Staffordshire,Olde Royal Oak,Burton U-T: Central,Perm,2025 Q2,Handpump,,52.8016194,-1.6298809
Staffordshire,Roebuck,Burton U-T: Central,Perm,2025 Q4,Handpump,,52.805918,-1.6396709
Staffordshire,Wyggeston Hotel,Burton U-T: Central,Perm,2025 Q2,Handpump,,52.8207217,-1.6494717
Staffordshire,Uxbridge Arms,Burton U-T: Central,Perm,2025 Q2,Handpump,,52.7963178,-1.6388207
Staffordshire,Navigation,Burton U-T: Horninglow,Perm,2025 Q4,Handpump,,52.8183143,-1.6396609
Staffordshire,Elms Inn,Burton U-T: Stapenhill,Perm,2025 Q4,Handpump,,52.8015085,-1.6214068
Staffordshire,Stapenhill Institute,Burton U-T: Stapenhill,Perm,2025 Q4,Handpump,,52.7936232,-1.6231469
Staffordshire,Waterloo,Burton U-T: Winshill,Perm,2025 Q4,Handpump,,52.804025,-1.606006
Staffordshire,Black Lion,Butterton,Perm,2025 Q1,Handpump,,53.1061371,-1.888803
Staffordshire,Auctioneers Arms,Caverswall,Perm,2025 Q1,Handpump,,52.9878364,-2.0828696
Staffordshire,Red Lion,Checkley,Perm,2025 Q3,Handpump,,52.9380848,-1.9601368
Staffordshire,Black Lion,Cheddleton,Perm,2025 Q4,Handpump,,53.0690569,-2.0441744
Staffordshire,Green Man,Clifton Campville,Perm,2025 Q4,Handpump,,52.6961103,-1.6212267
Staffordshire,Star Inn,Copmere End,Perm,2025 Q3,Handpump,,52.86206060000001,-2.2939172
Staffordshire,Red Lion aka Romping Cat,Dayhills,Perm,2025 Q4,Handpump,,52.8931169,-2.0631987
Staffordshire,Charlie Bassetts,Dilhorne,Perm,2025 Q3,Handpump,,52.9870403,-2.0463654
Staffordshire,Ecclian,Eccleshall,Perm,2025 Q2,Handpump,,52.8595,-2.2533248
Staffordshire,Star Inn,Eccleshall,Perm,2025 Q2,Handpump,,52.86206060000001,-2.2939172
Staffordshire,Crown,Elford,Perm,2025 Q4,Handpump,,52.6918684,-1.7223925
Staffordshire,Plough and Harrow,Fazeley,Perm,2025 Q4,Handpump,,52.61422,-1.6968489
Staffordshire,Three Horseshoes,Fazeley,Perm,2025 Q2,Handpump,,52.6137719,-1.6987742
Staffordshire,Roebuck Inn,Forsbrook,Perm,2025 Q3,Handpump,,52.9709485,-2.0536168
Staffordshire,Shoulder of Mutton,Fulford,Perm,2025 Q1,Handpump,,52.939393,-2.0709769
Staffordshire,Ye Olde Windmill,Gentleshaw,Perm,2025 Q4,Handpump,,52.7040953,-1.9255904
Staffordshire,Staffordshire Knot,Gillow Heath,Perm,2025 Q3,Handpump,,53.1266251,-2.1766191
Staffordshire,Clifford Arms,Great Haywood,Perm,2025 Q2,Handpump,,52.8018849,-2.0058979
Staffordshire,Shoulder of Mutton,Hamstall Ridware,Perm,2025 Q2,Handpump,,52.7683669,-1.8411212
Staffordshire,Cock Inn,Hanbury,Perm,2025 Q3,Handpump,,52.847998,-1.7430147
Staffordshire,Railway,Halmer End,Perm,2025 Q4,Handpump,,53.03909669999999,-2.306195
Staffordshire,Royal Oak,Harriseahead,Perm,2025 Q4,Handpump,,53.1009264,-2.2082189
Staffordshire,Cross Keys Hotel,Hednesford,Perm,2025 Q3,Handpump,,52.7004132,-1.9968332
Staffordshire,Meynell Ingram Arms,Hoar Cross,Perm,2025 Q3,Handpump,,52.8069437,-1.8044859
Staffordshire,Raddle,Hollington,Perm,2025 Q3,Handpump,,52.9542495,-1.9205118
Staffordshire,Star,Hollington,Perm,2025 Q2,Handpump,,52.9482158,-1.9144933
Staffordshire,Coton and Hopwas Social Club (PMC),Hopwas,Perm,2025 Q3,Handpump,,52.64435169999999,-1.737763
Staffordshire,Manifold Inn,Hulme End,Perm,2025 Q3,Handpump,,53.13044619999999,-1.8422819
Staffordshire,Plough,Kidsgrove,Perm,2025 Q2,Handpump,,53.084985,-2.2364297
Staffordshire,Queens Head,Kidsgrove,Perm,2025 Q4,Handpump,,53.0870513,-2.2385733
Staffordshire,Benks,Leek,Perm,2025 Q2,Handpump,,53.10717709999999,-2.0227857
Staffordshire,Blue Mugge,Leek,Perm,2025 Q4,Handpump,,53.10683,-2.016013
Staffordshire,Britannia,Leek,Perm,2025 Q3,Handpump,,53.10661409999999,-2.0308753
Staffordshire,Cobblers,Leek,Perm,2025 Q3,Handpump,,53.1052597,-2.0240761
Staffordshire,Dyers Arms,Leek,Perm,2025 Q2,Handpump,,53.10954899999999,-2.0362177
Staffordshire,Earl Grey,Leek,Perm,2025 Q3,Handpump,,53.1047702,-2.0178334
Staffordshire,Fountain Inn,Leek,Perm,2025 Q4,Handpump,,53.1058044,-2.0189846
Staffordshire,George IV,Lichfield,Perm,2025 Q2,Handpump,,52.68314969999999,-1.8270425
Staffordshire,Horse and Jockey,Lichfield,Perm,2025 Q4,Handpump,,52.6824765,-1.8306984
Staffordshire,Dog and Partridge,Marchington,Perm,2025 Q3,Handpump,,52.87409,-1.7990839
Staffordshire,Green Man,Milwich,Perm,2025 Q4,Handpump,,52.8877378,-2.0430832
Staffordshire,Red Lion,Newborough,Perm,2025 Q4,,,52.8256964,-1.7992871
Staffordshire,45 Club (PMC),Newcastle-U-L: Central,Perm,2025 Q3,Handpump,,53.0093069,-2.2165368
Staffordshire,Black Friar,Newcastle-U-L: Central,Perm,2025 Q3,Handpump,,53.0090232,-2.2252462
Staffordshire,Boat and Horses,Newcastle-U-L: Central,Perm,2025 Q4,Handpump,,53.0077115,-2.2249559
Staffordshire,Castle Mona,Newcastle-U-L: Central,Perm,2025 Q4,Handpump,,53.0068658,-2.2213088
Staffordshire,Hopinn,Newcastle-U-L: Central,Perm,2025 Q4,Handpump,,53.0145707,-2.2164208
Staffordshire,Jolly Potter,Newcastle-U-L: Central,Perm,2025 Q2,Handpump,,53.05211569999999,-2.2518271
Staffordshire,Museum,Newcastle-U-L: Central,Perm,2025 Q3,Handpump,,53.0124039,-2.2172347
Staffordshire,Victoria,Newcastle-U-L: Central,Perm,2025 Q4,Handpump,,53.0142018,-2.2185146
Staffordshire,Seabridge,Newcastle-U-L: Clayton,Perm,2025 Q1,Handpump,,52.9903062,-2.2358402
Staffordshire,Roebuck,Newcastle-U-L: Silverdale,Perm,2025 Q4,Handpump,,53.0170156,-2.2691135
Staffordshire,Brushmakers Arms,Oulton,Perm,2025 Q2,Handpump,,52.9189715,-2.1371075
Staffordshire,Dog and Partridge,Packmoor,Perm,2025 Q4,Handpump,,53.0864041,-2.2010177
Staffordshire,Cricket Club,Rolleston-on-Dove,Perm,2025 Q2,Handpump,,52.8465176,-1.6284227
Staffordshire,Social Club (PMC),Rolleston-on-Dove,Perm,2025 Q4,Handpump,,52.8459429,-1.6503056
Staffordshire,Roebuck,Silverdale,Perm,2025 Q2,Handpump,,53.017008,-2.2691341
Staffordshire,Vine Inn,Silverdale,Perm,2025 Q1,Handpump,,53.0152107,-2.2695388
Staffordshire,Railway Inn,Stafford,Perm,2025 Q2,Handpump,,52.80651839999999,-2.1256445
Staffordshire,Waggon and Horses,Stafford,Perm,2025 Q2,Handpump,,52.8147969,-2.1227847
Staffordshire,Travellers Rest,Stanley,Perm,2025 Q2,Handpump,,53.0676356,-2.1027673
Staffordshire,Baddeley Green Club (PMC),Stoke: Baddeley Green,Perm,2025 Q3,Handpump,,53.05840620000001,-2.1383323
Staffordshire,Hog Noggins,Stoke: Burslem,Perm,2025 Q4,Handpump,,53.0453489,-2.1988371
Staffordshire,Johnnys,Stoke: Burslem,Perm,2025 Q2,Handpump,,53.044754,-2.1988818
Staffordshire,Moorland,Stoke: Burslem,Perm,2025 Q4,Handpump,,53.0480187,-2.1826163
Staffordshire,Park Inn,Stoke: Dresden,Perm,2025 Q4,Handpump,,52.9775,-2.1366667
Staffordshire,Princess Royal,Stoke: Dresden,Perm,2025 Q3,Handpump,,52.9783986,-2.1363167
Staffordshire,Sir Robert Peel,Stoke: Dresden,Perm,2025 Q4,Handpump,,52.97861959999999,-2.1338924
Staffordshire,Bench and Bar,Stoke: Fenton,Perm,2025 Q3,Handpump,,52.99682809999999,-2.1641445
Staffordshire,Musician,Stoke: Fenton,Perm,2025 Q2,Handpump,,52.9994251,-2.1637176
Staffordshire,Pool Dole,Stoke: Fenton,Perm,2025 Q2,Handpump,,53.0003749,-2.1425326
Staffordshire,Coachmakers Arms,Stoke: Hanley,Perm,2025 Q4,Handpump,,53.0226609,-2.1734856
Staffordshire,Golden Cup,Stoke: Hanley,Perm,2025 Q4,Handpump,,53.03045849999999,-2.1738376
Staffordshire,Market Tavern,Stoke: Hanley,Perm,2025 Q1,Handpump,,53.0251836,-2.1749886
Staffordshire,Unicorn,Stoke: Hanley,Perm,2025 Q4,Handpump,,53.0249073,-2.1771843
Staffordshire,Victoria Lounge Bar,Stoke: Hanley,Perm,2025 Q4,Handpump,,53.022916,-2.1759098
Staffordshire,Woodman,Stoke: Hanley,Perm,2025 Q4,Handpump,,53.0254671,-2.1726369
Staffordshire,Jolly Potters,Stoke: Hartshill,Perm,2025 Q3,Handpump,,53.0095024,-2.2012416
Staffordshire,Old House at Home,Stoke: Hartshill,Perm,2025 Q3,Handpump,,53.0108595,-2.2112244
Staffordshire,Red Lion,Stoke: Hartshill,Perm,2025 Q4,Handpump,,53.0114037,-2.2115757
Staffordshire,Congress Inn,Stoke: Longton,Perm,2025 Q4,Handpump,,52.9877901,-2.1316406
Staffordshire,Gardeners Rest,Stoke: Longton,Perm,2025 Q3,Handpump,,52.9837921,-2.1345809
Staffordshire,Signalman,Stoke: Longton,Perm,2025 Q4,Handpump,,52.9877838,-2.1269868
Staffordshire,Jolly Carter,Stoke: Middleport,Perm,2025 Q4,Handpump,,53.0433053,-2.2064078
Staffordshire,Northwood Inn,Stoke: Northwood,Perm,2025 Q4,Handpump,,53.02931470000001,-2.1613284
Staffordshire,Wheatsheaf Stores,Stoke: Northwood,Perm,2025 Q2,Handpump,,53.03055519999999,-2.1662025
Staffordshire,Vine,Stoke: Pittshill,Perm,2025 Q3,Handpump,,53.0678898,-2.1995557
Staffordshire,Kings Head (Scrimmies),Stoke: Smallthorne,Perm,2025 Q2,Handpump,,53.0515538,-2.1739763
Staffordshire,White Hart,Stoke: Smallthorne,Perm,2025 Q3,Handpump,,53.0502475,-2.1763348
Staffordshire,Kings Way,Stoke: Central,Perm,2025 Q2,Handpump,,53.00395289999999,-2.1843106
Staffordshire,Staff of Life,Stoke: Central,Perm,2025 Q4,Handpump,,53.0040422,-2.1865934
Staffordshire,Globe,Stoke: Tunstall,Perm,2025 Q3,Handpump,£3 every Port Vale home game or PV on Sky Sports,53.05640229999999,-2.2106053
Staffordshire,White Horse,Stoke: Tunstall,Perm,2025 Q4,Handpump,,53.0544732,-2.2107376
Staffordshire,Anglesey Arms,Stretton,Perm,2025 Q2,Handpump,quality warning May 2025,52.8333434,-1.627359
Staffordshire,Monks Bridge,Stretton,Perm,2025 Q4,Handpump,,52.8362521,-1.6221823
Staffordshire,Stretton Bowls Club,Stretton,Perm,2025 Q3,Handpump,,52.83298449999999,-1.6307113
Staffordshire,Stretton Social Club (PMC),Stretton,Perm,2025 Q3,Handpump,,52.8290848,-1.6245861
Staffordshire,Globe Inn,Tamworth,Perm,2025 Q4,Handpump,,52.6357779,-1.6938968
Staffordshire,Cross Keys,Tean,Perm,2025 Q2,Handpump,,52.9569599,-1.9897269
Staffordshire,White Hart,Tean,Perm,2025 Q4,Handpump,,52.9537248,-1.9882799
Staffordshire,Anchor,Teanford,Perm,2025 Q2,Handpump,,52.96151090000001,-1.9910674
Staffordshire,Cross Keys,Tutbury,Perm,2025 Q2,Handpump,,52.85534620000001,-1.6825797
Staffordshire,Hourglass,Tutbury,Perm,2025 Q4,Handpump,,52.8573369,-1.6858417
Staffordshire,Institute (PMC),Tutbury,Perm,2025 Q2,Handpump,,52.8563676,-1.6865535
Staffordshire,Leopard,Tutbury,Perm,2025 Q4,Handpump,,52.8574711,-1.6879901
Staffordshire,Ye Olde Rock,Upper Hulme,Perm,2025 Q3,Handpump,,53.1459596,-1.9816332
Staffordshire,Black Swan,Uttoxeter,Perm,2025 Q4,Handpump,,52.8975452,-1.8643942
Staffordshire,Ye Olde Talbot,Uttoxeter,Perm,2025 Q4,Handpump,,52.8980572,-1.86453
Staffordshire,Old Star,Uttoxeter,Perm,2025 Q4,Handpump,,52.89784,-1.863869
Staffordshire,Vaults,Uttoxeter,Perm,2025 Q4,Handpump,,52.8982246,-1.863819
Staffordshire,Red Lion,Waterfall,Perm,2025 Q4,Handpump,,53.06156379999999,-1.88129
Staffordshire,Ye Olde Crown Hotel,Waterhouses,Perm,2025 Q2,Handpump,"""brand new cask lines installed"" (June 2025)",53.0490502,-1.8762283
Staffordshire,Windmill,Werrington,Perm,2025 Q1,Handpump,,53.0248297,-2.0868175
Staffordshire,Bell Inn,Whittington,Perm,2025 Q3,Handpump,,52.673569,-1.7620065
Staffordshire,Dog Inn,Whittington,Perm,2025 Q4,Handpump,,52.6718013,-1.7636217
Staffordshire,Village Tavern,Wolstanton,Perm,2025 Q3,Handpump,,53.03233,-2.2187254
Staffordshire,Whippet Inn,Wolstanton,Perm,2025 Q4,Handpump,,53.031183,-2.2160092
Surrey,Bricklayers Arms,Hersham,Perm,2025 Q4,Handpump,,51.36635,-0.402136
Tyne and Wear,Old George,Newcastle: Central,Perm,2025 Q1,Handpump,,54.9713287,-1.6127414
Tyne and Wear,Three Bulls Heads,Newcastle: Central,Perm,2025 Q3,Handpump,,54.9756966,-1.6165855
Tyne and Wear,Brandling Arms,Newcastle: Gosforth,Perm,2025 Q3,Handpump,,55.00610349999999,-1.6194723
Tyne and Wear,Low Lights Tavern,North Shields,Perm,2025 Q3,Handpump,,55.01074930000001,-1.434695
Tyne and Wear,Marine,South Shields,Perm,2025 Q2,Handpump,,55.0004135,-1.4240509
Tyne and Wear,Turks Head (Stuffed Dog),Tynemouth,Perm,2025 Q4,Handpump,(quality warning MH June 25),55.0179358,-1.4219527
Tyne and Wear,Tynemouth WMC/Social Club (PMC),Tynemouth,Perm,2025 Q4,Handpump,,55.0177975,-1.4250231
Tyne and Wear,Tynemouth Lodge Hotel,Tynemouth,Perm,2025 Q4,Handpump,,55.01410749999999,-1.4336766
Warwickshire,Con Club (PMC),Atherstone,Perm,2025 Q3,Handpump,,52.5763697,-1.5436882
Warwickshire,Hat and Beaver,Atherstone,Perm,2025 Q4,Handpump,,52.5765336,-1.5436154
Warwickshire,Maid of the Mill,Atherstone,Perm,2025 Q4,Handpump,,52.57367410000001,-1.5497036
Warwickshire,New Swan,Atherstone,Perm,2025 Q1,Handpump,,52.5778179,-1.5469523
Warwickshire,Wheatsheaf,Atherstone,Perm,2025 Q1,Handpump,,52.5781323,-1.5495559
Warwickshire,Royal Oak,Attleborough,Perm,2025 Q3,Handpump,,52.5136968,-1.4555873
Warwickshire,Rose Inn,Baxterley,Perm,2025 Q4,Handpump,,52.5696603,-1.5918717
Warwickshire,Horse and Jockey,Bentley,Perm,2025 Q3,Handpump,,52.5586981,-1.5842428
Warwickshire,Olde Chequers Inn,Bulkington,Perm,2025 Q2,Handpump,,52.475362,-1.425478
Warwickshire,Weavers Arms,Bulkington,Perm,2025 Q2,Handpump,,52.4780491,-1.4145544
Warwickshire,Salutation,Chapel End,Perm,2025 Q3,Handpump,,52.5360083,-1.5214686
Warwickshire,Green Man,Coleshill,Perm,2025 Q4,Handpump,supply issues reported 2025 Q1,52.4998602,-1.7072165
Warwickshire,Bull and Butcher,Corley Moor,Perm,2025 Q2,Handpump,,52.46228809999999,-1.5901806
Warwickshire,Great Western,Deppers Bridge,Perm,2025 Q4,Handpump,,52.23418299999999,-1.4325827
Warwickshire,Royal Oak,Hartshill,Perm,2025 Q3,Handpump,,52.54181639999999,-1.5227853
Warwickshire,Anchor Inn,Leek Wootton,Perm,2025 Q3,Handpump,,52.31825509999999,-1.5768855
Warwickshire,Queens Head,Meriden,Perm,2025 Q2,Handpump,,52.4357976,-1.6313951
Warwickshire,Chestnuts (PMC),Nuneaton: Central,Perm,2025 Q3,Handpump,,52.5275174,-1.4611807
Warwickshire,Crew & Queens Hall,Nuneaton: Central,Perm,2025 Q2,Handpump,,52.52248640000001,-1.4734002
Warwickshire,White Hart,Ridge Lane,Perm,2025 Q4,Handpump,,52.55215,-1.5703455
Warwickshire,Black Horse,Sheepy Magna,Perm,2025 Q4,Handpump,,52.6093519,-1.5191945
Warwickshire,Plough,Shustoke,Perm,2025 Q2,Handpump,,52.5151973,-1.6664457
Warwickshire,Office at Warton,Warton,Perm,2025 Q3,Handpump,,52.63003149999999,-1.583708
Warwickshire,Black Pug,Warwick,Perm,2025 Q1,Handpump,,52.2850232,-1.5773042
West Midlands,Rainbow Inn,Allesley,Perm,2025 Q2,Handpump,,52.4229849,-1.5592494
West Midlands,Woodman,Birmingham: Central,Perm,2025 Q2,Handpump,,52.4817105,-1.8867184
West Midlands,Hearsall Inn,Coventry: Chapelfields,Perm,2025 Q3,Handpump,,52.40722270000001,-1.5316499
West Midlands,Gatehouse Tavern,Coventry: Central,Perm,2025 Q4,Handpump,,52.4100489,-1.5171079
West Midlands,Old Windmill,Coventry: Central,Perm,2025 Q4,Handpump,,52.4083078,-1.5169089
West Midlands,Town Wall Tavern,Coventry: Central,Perm,2025 Q4,Handpump,,52.4097297,-1.515242
West Midlands,Royal Oak,Coventry: Earlsdon,Perm,2025 Q4,Handpump,,52.39931989999999,-1.5318225
West Midlands,Hare and Hounds,Coventry: Keresley,Perm,2025 Q3,Handpump,,52.4510348,-1.5322139
West Midlands,Greyhound Inn,Coventry: Sutton Stop,Perm,2025 Q2,Handpump,,52.4573752,-1.4691529
West Midlands,Queens Head,Meriden,Perm,2025 Q2,Handpump,,52.4357976,-1.6313951
Wiltshire,Corsham Club (PMC),Corsham,Perm,2025 Q4,Handpump,,51.4321451,-2.187646
Wiltshire,Three Brewers,Corsham,Perm,2025 Q3,Handpump,,51.4352143,-2.1902684
Worcestershire,Dead Dove,Worcester: Central,Perm,2025 Q4,Handpump,,52.2055883,-2.2819372
East Yorkshire,Avenue,Hull,Perm,2025 Q4,Handpump,,53.7552555,-0.3734898
East Yorkshire,Nolans,Hull,Perm,2025 Q4,Handpump,,53.7427646,-0.3334462
North Yorkshire,Ship Inn,Guisborough,Perm,2025 Q3,Handpump,,54.5340387,-1.0579146
North Yorkshire,Blind Jacks,Knaresborough,Perm,2025 Q4,Handpump,,54.0078755,-1.4670757
North Yorkshire,Star Inn,Whitby,Perm,2025 Q4,,Available banked!,54.4877137,-0.6148636
North Yorkshire,Ketton Ox,Yarm,Perm,2025 Q1,Handpump,,54.5105105,-1.3550906
South Yorkshire,Roadhouse Bar and Bottles,Rotherham: Broom,Perm,2025 Q4,Handpump,£4 a pint buy 6 get one free,53.4184734,-1.3226238
South Yorkshire,Alder,Sheffield: Central,Perm,2025 Q4,Handpump,,53.3920424,-1.4760214
West Yorkshire,Fox and Hounds,Newmillerdam,Perm,2025 Q1,Handpump,,53.6371151,-1.5018001
Glamorgan,Birch Brewhouse,Cardiff: Birchgrove,Perm,2025 Q4,Handpump,,51.5104755,-3.1999786
Glamorgan,Dinas Rock Hotel,Glynneath,Perm,2025 Q2,Handpump,,51.74784709999999,-3.6168365
Glamorgan,Prince of Wales,Kenfig,Perm,2025 Q2,Gravity,,51.5224511,-3.7258083
Glamorgan,Plough and Harrow,Monknash,Perm,2024 Q4,Gravity,On notice - a year since a spot!,51.42402389999999,-3.5549697
Glamorgan,Beaufort Arms,Mumbles,Perm,2025 Q1,Handpump,,51.5800622,-4.0045017
Glamorgan,Pilot Inn,Mumbles,Perm,2025 Q2,Handpump,,51.571481,-3.9879355
Glamorgan,Victoria Inn,Mumbles,Perm,2025 Q4,Handpump,,51.5734267,-3.9996309
Glamorgan,White Rose,Mumbles,Perm,2025 Q1,Handpump,,51.5757617,-3.9989389
Glamorgan,Red Lion,Penderyn,Perm,2025 Q1,Gravity,quality issues reported by SQ 2024 Q3,51.7655831,-3.529774
Gwent,Station Hotel,Abergavenny/Y Fenni,Perm,2025 Q2,Handpump,,51.8249704,-3.0244828
Gwent,Greyhound,Christchurch Newport,Perm,2025 Q1,Handpump,,51.5989009,-2.9452831
Gwent,Carpenters,Newport,Perm,2025 Q4,Handpump,,51.5896966,-2.9967654
Gwent,Pen and Wig,Newport,Perm,2025 Q4,Handpump,,51.5872737,-2.9970017
Gwent,New Court Inn,Usk,Perm,2025 Q1,Handpump,,51.7005126,-2.9018929
Mid-Wales,Mount Inn,Llanidloes,Perm,2025 Q3,Handpump,,52.4476291,-3.5406641
Mid-Wales,Railway Tavern,Newtown/Y Drenewydd,Perm,2025 Q1,Handpump,,52.513315,-3.3106704
Mid-Wales,Ancient Briton,Pen-y-cae,Perm,2025 Q2,Handpump,,51.8058109,-3.6845829
North-East Wales,Fox,Ysceifiog,Perm,2025 Q4,Handpump,,53.23415439999999,-3.2724424
North-West Wales,Black Boy,Caernarfon,Perm,2025 Q2,Handpump,,53.1411723,-4.2759817
North-West Wales,Liverpool Arms,Conwy,Perm,2025 Q4,Handpump,,53.2820499,-3.828080899999999
North-West Wales,Snowdon,Llandudno,Perm,2025 Q4,Handpump,,53.3267467,-3.8339607
North-West Wales,Hand Inn,Llanrhaeadr,Perm,2025 Q2,Handpump,,52.8252112,-3.3005873
North-West Wales,Tafarn Pencei,Porthmadog,Perm,2025 Q3,Handpump,,52.9239836,-4.1308668
West Wales,Fishguard Arms,Fishguard,Perm,2025 Q2,Gravity,,51.9941285,-4.9744256
West Wales,Ship Inn,Fishguard,Perm,2025 Q1,Handpump,,51.9952935,-4.9680877
West Wales,Y Sgwâr (was Ivy Bush),Newcastle Emlyn,Perm,2025 Q3,Handpump,,52.0370557,-4.4697301
West Wales,Pelican Inn/Tafarn Y Pelican,Newcastle Emlyn,Perm,2025 Q2,Gravity,,52.0385305,-4.467687700000001
West Wales,Dyffryn Arms,Pontfaen,Perm,2025 Q3,Jug,,51.9698472,-4.8745588
SCOTLAND,Tennents,Glasgow: Hillhead,Perm,2025 Q4,Handpump,,55.8742156,-4.2950569
